[
  {"name":"양재IC",    "road":"경부고속도로",    "lat":37.4771,"lon":127.0437},
  {"name":"서울IC",    "road":"경부고속도로",    "lat":37.4619,"lon":127.0084},

  {"name":"신정IC",    "road":"강남순환도시고속도로","lat":37.5210,"lon":126.8620},
  {"name":"목동IC",    "road":"강남순환도시고속도로","lat":37.5317,"lon":126.8862},
  {"name":"금천IC",    "road":"강남순환도시고속도로","lat":37.4736,"lon":126.8832},
  {"name":"서초IC",    "road":"강남순환도시고속도로","lat":37.4905,"lon":127.0068},
  {"name":"우면IC",    "road":"강남순환도시고속도로","lat":37.4694,"lon":127.0222},

  {"name":"성산IC",    "road":"내부순환로",      "lat":37.5680,"lon":126.9059},
  {"name":"홍제IC",    "road":"내부순환로",      "lat":37.5879,"lon":126.9440},
  {"name":"성북IC",    "road":"내부순환로",      "lat":37.6025,"lon":127.0010},
  {"name":"길음IC",    "road":"내부순환로",      "lat":37.6105,"lon":127.0173},
  {"name":"상월곡IC",  "road":"내부순환로",      "lat":37.6078,"lon":127.0430},
  {"name":"월계IC",    "road":"내부순환로",      "lat":37.6234,"lon":127.0455},
  {"name":"중랑IC",    "road":"내부순환로",      "lat":37.5863,"lon":127.0786},
  {"name":"군자IC",    "road":"내부순환로",      "lat":37.5584,"lon":127.0774},
  {"name":"마장IC",    "road":"내부순환로",      "lat":37.5659,"lon":127.0594},
  {"name":"성동IC",    "road":"내부순환로",      "lat":37.5588,"lon":127.0421},

  {"name":"개화IC",    "road":"올림픽대로",      "lat":37.5732,"lon":126.8084},
  {"name":"방화IC",    "road":"올림픽대로",      "lat":37.5688,"lon":126.8209},
  {"name":"가양IC",    "road":"올림픽대로",      "lat":37.5604,"lon":126.8560},
  {"name":"양화IC",    "road":"올림픽대로",      "lat":37.5462,"lon":126.9019},
  {"name":"여의IC",    "road":"올림픽대로",      "lat":37.5219,"lon":126.9337},
  {"name":"반포IC",    "road":"올림픽대로",      "lat":37.5078,"lon":127.0028},
  {"name":"잠원IC",    "road":"올림픽대로",      "lat":37.5095,"lon":127.0020},
  {"name":"한남IC",    "road":"올림픽대로",      "lat":37.5291,"lon":127.0023},
  {"name":"성수IC",    "road":"올림픽대로",      "lat":37.5375,"lon":127.0624},
  {"name":"구리IC",    "road":"올림픽대로",      "lat":37.5641,"lon":127.1152},
  {"name":"강일IC",    "road":"올림픽대로",      "lat":37.5611,"lon":127.1555},

  {"name":"서강IC",    "road":"강변북로",        "lat":37.5540,"lon":126.9262},
  {"name":"마포IC",    "road":"강변북로",        "lat":37.5536,"lon":126.8986},
  {"name":"원효IC",    "road":"강변북로",        "lat":37.5412,"lon":126.9617},
  {"name":"서빙고IC",  "road":"강변북로",        "lat":37.5236,"lon":126.9806},

  {"name":"영등포IC",  "road":"서부간선도로",    "lat":37.5134,"lon":126.8970},
  {"name":"구로IC",    "road":"서부간선도로",    "lat":37.4949,"lon":126.8773},
  {"name":"금천IC",    "road":"서부간선도로",    "lat":37.4636,"lon":126.8850},

  {"name":"도봉IC",    "road":"동부간선도로",    "lat":37.6671,"lon":127.0443},
  {"name":"창동IC",    "road":"동부간선도로",    "lat":37.6532,"lon":127.0334},
  {"name":"상계IC",    "road":"동부간선도로",    "lat":37.6467,"lon":127.0621},
  {"name":"월릉IC",    "road":"동부간선도로",    "lat":37.6357,"lon":127.0725},
  {"name":"공릉IC",    "road":"동부간선도로",    "lat":37.6297,"lon":127.0802},
  {"name":"중랑IC",    "road":"동부간선도로",    "lat":37.5890,"lon":127.0829},
  {"name":"천호IC",    "road":"동부간선도로",    "lat":37.5341,"lon":127.1220},

  {"name":"수서IC",    "road":"분당수서도로",    "lat":37.4886,"lon":127.1009},
  {"name":"복정IC",    "road":"분당수서도로",    "lat":37.4723,"lon":127.1197},

  {"name":"구리IC",    "road":"수도권제1순환",   "lat":37.5818,"lon":127.1457},
  {"name":"서울IC",    "road":"수도권제1순환",   "lat":37.6236,"lon":127.1183},
  {"name":"고양IC",    "road":"수도권제1순환",   "lat":37.6505,"lon":126.8765},
  {"name":"김포IC",    "road":"수도권제1순환",   "lat":37.6037,"lon":126.7497}
]
