[
  {"name":"여의도공원",        "lat":37.5263,"lon":126.9340},
  {"name":"서울숲",            "lat":37.5445,"lon":127.0374},
  {"name":"올림픽공원",        "lat":37.5208,"lon":127.1194},
  {"name":"북서울꿈의숲",      "lat":37.6273,"lon":127.0524},
  {"name":"보라매공원",        "lat":37.4940,"lon":126.9188},
  {"name":"남산공원",          "lat":37.5512,"lon":126.9882},
  {"name":"월드컵공원",        "lat":37.5718,"lon":126.8874},
  {"name":"낙산공원",          "lat":37.5796,"lon":127.0089},
  {"name":"인왕산공원",        "lat":37.5824,"lon":126.9588},
  {"name":"북악산공원",        "lat":37.5929,"lon":126.9717},
  {"name":"선유도공원",        "lat":37.5435,"lon":126.8994},
  {"name":"보라매공원",        "lat":37.4940,"lon":126.9188},
  {"name":"반포한강공원",      "lat":37.5126,"lon":126.9993},
  {"name":"잠원한강공원",      "lat":37.5148,"lon":127.0057},
  {"name":"잠실한강공원",      "lat":37.5194,"lon":127.0780},
  {"name":"뚝섬한강공원",      "lat":37.5316,"lon":127.0686},
  {"name":"이촌한강공원",      "lat":37.5199,"lon":126.9651},
  {"name":"여의도한강공원",    "lat":37.5282,"lon":126.9335},
  {"name":"망원한강공원",      "lat":37.5546,"lon":126.9010},
  {"name":"난지한강공원",      "lat":37.5697,"lon":126.8883},
  {"name":"강서한강공원",      "lat":37.5697,"lon":126.8368},
  {"name":"광나루한강공원",    "lat":37.5440,"lon":127.1086},
  {"name":"고덕수변생태공원",  "lat":37.5534,"lon":127.1736},
  {"name":"천호공원",          "lat":37.5374,"lon":127.1298},
  {"name":"암사생태공원",      "lat":37.5569,"lon":127.1351},
  {"name":"강동그린웨이",      "lat":37.5536,"lon":127.1451},
  {"name":"용산가족공원",      "lat":37.5271,"lon":126.9796},
  {"name":"효창공원",          "lat":37.5391,"lon":126.9617},
  {"name":"서울어린이대공원",  "lat":37.5489,"lon":127.0734},
  {"name":"중랑캠핑숲",        "lat":37.6058,"lon":127.0875},
  {"name":"길동생태공원",      "lat":37.5364,"lon":127.1408},
  {"name":"배봉산근린공원",    "lat":37.5815,"lon":127.0620},
  {"name":"용마산근린공원",    "lat":37.5742,"lon":127.0900},
  {"name":"아차산근린공원",    "lat":37.5581,"lon":127.0987},
  {"name":"청계산공원",        "lat":37.4427,"lon":127.0528},
  {"name":"대모산근린공원",    "lat":37.4652,"lon":127.0758},
  {"name":"구룡산근린공원",    "lat":37.4798,"lon":127.0501},
  {"name":"양재시민의숲",      "lat":37.4742,"lon":127.0363},
  {"name":"대치근린공원",      "lat":37.4972,"lon":127.0632},
  {"name":"일원근린공원",      "lat":37.4883,"lon":127.0896},
  {"name":"수서근린공원",      "lat":37.4874,"lon":127.1042},
  {"name":"가락근린공원",      "lat":37.4929,"lon":127.1197},
  {"name":"개포근린공원",      "lat":37.4741,"lon":127.0541},
  {"name":"도곡근린공원",      "lat":37.4921,"lon":127.0558},
  {"name":"논현근린공원",      "lat":37.5118,"lon":127.0323},
  {"name":"역삼근린공원",      "lat":37.5039,"lon":127.0430},
  {"name":"강남근린공원",      "lat":37.4959,"lon":127.0228},
  {"name":"서초근린공원",      "lat":37.4888,"lon":127.0137},
  {"name":"방배근린공원",      "lat":37.4851,"lon":126.9942},
  {"name":"사당근린공원",      "lat":37.4786,"lon":126.9829},
  {"name":"낙성대공원",        "lat":37.4779,"lon":126.9611},
  {"name":"관악산공원",        "lat":37.4450,"lon":126.9580},
  {"name":"신림근린공원",      "lat":37.4864,"lon":126.9206},
  {"name":"도림근린공원",      "lat":37.5091,"lon":126.9021},
  {"name":"영등포구민공원",    "lat":37.5190,"lon":126.9053},
  {"name":"목동근린공원",      "lat":37.5294,"lon":126.8774},
  {"name":"신정근린공원",      "lat":37.5208,"lon":126.8620},
  {"name":"발산근린공원",      "lat":37.5454,"lon":126.8421},
  {"name":"화곡근린공원",      "lat":37.5370,"lon":126.8523},
  {"name":"개화산근린공원",    "lat":37.5737,"lon":126.8098},
  {"name":"궁산근린공원",      "lat":37.5642,"lon":126.8566},
  {"name":"조각공원",          "lat":37.5578,"lon":126.8760},
  {"name":"공덕근린공원",      "lat":37.5451,"lon":126.9516},
  {"name":"상암근린공원",      "lat":37.5779,"lon":126.8894},
  {"name":"월드컵근린공원",    "lat":37.5727,"lon":126.8969},
  {"name":"홍제근린공원",      "lat":37.5952,"lon":126.9467},
  {"name":"안산근린공원",      "lat":37.5791,"lon":126.9431},
  {"name":"경의선숲길",        "lat":37.5484,"lon":126.9371},
  {"name":"이대근린공원",      "lat":37.5592,"lon":126.9498},
  {"name":"봉원근린공원",      "lat":37.5649,"lon":126.9521},
  {"name":"사직공원",          "lat":37.5742,"lon":126.9700},
  {"name":"삼청공원",          "lat":37.5887,"lon":126.9809},
  {"name":"경복궁근처공원",    "lat":37.5796,"lon":126.9737},
  {"name":"종묘공원",          "lat":37.5743,"lon":126.9943},
  {"name":"탑골공원",          "lat":37.5722,"lon":126.9919},
  {"name":"평화의공원",        "lat":37.5746,"lon":126.8923},
  {"name":"하늘공원",          "lat":37.5780,"lon":126.8804},
  {"name":"노을공원",          "lat":37.5695,"lon":126.8797},
  {"name":"수락산근린공원",    "lat":37.6694,"lon":127.0577},
  {"name":"도봉산근린공원",    "lat":37.6885,"lon":127.0448},
  {"name":"방학근린공원",      "lat":37.6619,"lon":127.0348},
  {"name":"우이동근린공원",    "lat":37.6557,"lon":127.0096},
  {"name":"북한산공원",        "lat":37.6588,"lon":126.9799},
  {"name":"솔밭근린공원",      "lat":37.6495,"lon":127.0408},
  {"name":"창포원",            "lat":37.6294,"lon":127.0497},
  {"name":"태릉근린공원",      "lat":37.6209,"lon":127.0855},
  {"name":"공릉근린공원",      "lat":37.6283,"lon":127.0802},
  {"name":"노원천근린공원",    "lat":37.6534,"lon":127.0608},
  {"name":"증산근린공원",      "lat":37.5836,"lon":126.9047},
  {"name":"수색근린공원",      "lat":37.5798,"lon":126.8870},
  {"name":"응암근린공원",      "lat":37.6001,"lon":126.9152},
  {"name":"봉산근린공원",      "lat":37.6240,"lon":126.9126},
  {"name":"진관근린공원",      "lat":37.6350,"lon":126.9300},
  {"name":"불광근린공원",      "lat":37.6129,"lon":126.9309},
  {"name":"성동근린공원",      "lat":37.5614,"lon":127.0299},
  {"name":"금호근린공원",      "lat":37.5558,"lon":127.0198},
  {"name":"응봉근린공원",      "lat":37.5441,"lon":127.0297},
  {"name":"성수근린공원",      "lat":37.5468,"lon":127.0548},
  {"name":"안암근린공원",      "lat":37.5878,"lon":127.0271},
  {"name":"개운산공원",        "lat":37.5884,"lon":127.0287},
  {"name":"정릉근린공원",      "lat":37.6157,"lon":127.0097},
  {"name":"길음근린공원",      "lat":37.6094,"lon":127.0274},
  {"name":"석관근린공원",      "lat":37.6199,"lon":127.0586},
  {"name":"중화근린공원",      "lat":37.5974,"lon":127.0893},
  {"name":"용마폭포공원",      "lat":37.5770,"lon":127.0937},
  {"name":"면목근린공원",      "lat":37.5831,"lon":127.0848},
  {"name":"왕십리공원",        "lat":37.5617,"lon":127.0390},
  {"name":"이수근린공원",      "lat":37.4855,"lon":126.9843},
  {"name":"국사봉근린공원",    "lat":37.5000,"lon":126.9404},
  {"name":"신대방근린공원",    "lat":37.4937,"lon":126.9135},
  {"name":"상도근린공원",      "lat":37.5009,"lon":126.9529},
  {"name":"장승배기근린공원",  "lat":37.5070,"lon":126.9426},
  {"name":"노량진근린공원",    "lat":37.5133,"lon":126.9440},
  {"name":"사당근린공원2",     "lat":37.4769,"lon":126.9819}
]
